[
  {
    "name": "糖巢量贩零食(三明学院店)(装修中)",
    "type": "附近共聚集了 3 个品牌",
    "city": "三明市",
    "district": "三元区",
    "all_name": "古茗(三明学院店)|糖巢量贩零食(三明学院店)(装修中)|肯德基(三明学院小站店)",
    "location": [
      117.562956324354,
      26.1951590002746
    ],
    "near_shop": "MS930(390.0)"
  },
  {
    "name": "糖巢零食(梅仙店)",
    "type": "附近共聚集了 3 个品牌",
    "city": "三明市",
    "district": "尤溪县",
    "all_name": "古茗(尤溪梅仙镇店)|糖巢零食(梅仙店)|蜜雪冰城(坂头街店)",
    "location": [
      118.251470400839,
      26.2348913059176
    ],
    "near_shop": "无门店"
  },
  {
    "name": "好想来品牌零食(三明尤溪县洋中镇店)",
    "type": "附近共聚集了 4 个品牌",
    "city": "三明市",
    "district": "尤溪县",
    "all_name": "古茗(尤溪洋中镇店)|好想来品牌零食(三明尤溪县洋中镇店)|糖巢(三明尤溪洋中店)|好郁赵一鸣零食(福建三明尤溪洋中镇店)",
    "location": [
      118.479287257645,
      26.2781068409692
    ],
    "near_shop": "无门店"
  },
  {
    "name": "糖巢量贩零食(三明尤溪西滨店)",
    "type": "附近共聚集了 4 个品牌",
    "city": "三明市",
    "district": "尤溪县",
    "all_name": "古茗(尤溪西滨镇店)|糖巢量贩零食(三明尤溪西滨店)|蜜雪冰城(西滨店)|赵一鸣零食(福建三明尤溪西滨镇店)",
    "location": [
      118.383978080254,
      26.3638334492859
    ],
    "near_shop": "无门店"
  },
  {
    "name": "赵一鸣零食(福建三明尤溪新阳镇新辉店)",
    "type": "附近共聚集了 3 个品牌",
    "city": "三明市",
    "district": "尤溪县",
    "all_name": "糖巢零食(新阳店)|蜜雪冰城(新兴街店)|赵一鸣零食(福建三明尤溪新阳镇新辉店)",
    "location": [
      117.950681781256,
      26.0465161809759
    ],
    "near_shop": "无门店"
  },
  {
    "name": "赵一鸣零食(福建三明永安南溪路店)",
    "type": "附近共聚集了 3 个品牌",
    "city": "三明市",
    "district": "永安市",
    "all_name": "华莱士·全鸡汉堡(南溪路店)|糖巢量贩零食(建发玺院店)|赵一鸣零食(福建三明永安南溪路店)",
    "location": [
      117.371903718294,
      25.9288844619553
    ],
    "near_shop": "MW0346(1020.0)|ME329(2852.0)"
  },
  {
    "name": "华莱士·全鸡汉堡(建阳水吉镇店)",
    "type": "附近共聚集了 3 个品牌",
    "city": "南平市",
    "district": "建阳区",
    "all_name": "华莱士·全鸡汉堡(建阳水吉镇店)|古茗(建阳人民路店)|糖巢零食(南平建阳水吉店)",
    "location": [
      118.3481118911,
      27.4156563800437
    ],
    "near_shop": "无门店"
  },
  {
    "name": "糖巢量贩零食",
    "type": "附近共聚集了 3 个品牌",
    "city": "南平市",
    "district": "浦城县",
    "all_name": "古茗(浦城石陂店)|好想来品牌零食(南平浦城县石陂镇店)|糖巢量贩零食",
    "location": [
      118.37103055679,
      27.6965711680671
    ],
    "near_shop": "无门店"
  },
  {
    "name": "华莱士·全鸡汉堡(大街店)",
    "type": "附近共聚集了 3 个品牌",
    "city": "南平市",
    "district": "建瓯市",
    "all_name": "华莱士·全鸡汉堡(大街店)|古茗(建瓯南雅镇店)|糖巢零食(南雅店)",
    "location": [
      118.313858186446,
      26.8733977865145
    ],
    "near_shop": "无门店"
  },
  {
    "name": "楚郑中国汉堡(迪口店)",
    "type": "附近共聚集了 3 个品牌",
    "city": "南平市",
    "district": "南平市",
    "all_name": "古茗(迪口镇店)|糖巢(南平建瓯迪口店)|楚郑中国汉堡(迪口店)",
    "location": [
      118.46770117161,
      26.7449556688866
    ],
    "near_shop": "无门店"
  },
  {
    "name": "古茗(霍童古镇店)",
    "type": "附近共聚集了 4 个品牌",
    "city": "宁德市",
    "district": "蕉城区",
    "all_name": "华莱士·全鸡汉堡(霍童古镇景区店)|古茗(霍童古镇店)|糖巢零食(宁德蕉城霍童店)|华莱士·全鸡汉堡(霍童古镇景区店)",
    "location": [
      119.422013066464,
      26.8491164463518
    ],
    "near_shop": "无门店"
  },
  {
    "name": "蜜雪冰城(鹤塘店)",
    "type": "附近共聚集了 3 个品牌",
    "city": "宁德市",
    "district": "古田县",
    "all_name": "古茗(古田鹤兴路店)|糖巢(宁德古田鹤塘店)|蜜雪冰城(鹤塘店)",
    "location": [
      119.120467564721,
      26.6561399798806
    ],
    "near_shop": "无门店"
  },
  {
    "name": "古茗(古田平湖店)",
    "type": "附近共聚集了 4 个品牌",
    "city": "宁德市",
    "district": "古田县",
    "all_name": "古茗(古田平湖店)|糖巢(宁德古田平湖店)|蜜雪冰城|赵一鸣零食(福建宁德古田平湖镇店)",
    "location": [
      118.804777571553,
      26.7323499867081
    ],
    "near_shop": "无门店"
  },
  {
    "name": "华莱士·全鸡汉堡(福安下白石店)",
    "type": "附近共聚集了 3 个品牌",
    "city": "宁德市",
    "district": "福安市",
    "all_name": "华莱士·全鸡汉堡(福安下白石店)|古茗(福安下白石镇店)|糖巢量贩零食(宁德福安下白石店)",
    "location": [
      119.688008953966,
      26.8097701031741
    ],
    "near_shop": "无门店"
  },
  {
    "name": "糖巢量贩零食(三都澳旅游景区店)",
    "type": "附近共聚集了 4 个品牌",
    "city": "宁德市",
    "district": "福安市",
    "all_name": "古茗(福安湾坞店)|糖巢量贩零食(三都澳旅游景区店)|糖巢零食湾坞青拓嘉园店|蜜雪冰城(赛湾公路店)",
    "location": [
      119.717695213606,
      26.8301719269058
    ],
    "near_shop": "MS1498(496.0)"
  },
  {
    "name": "蜜雪冰城",
    "type": "附近共聚集了 5 个品牌",
    "city": "漳州市",
    "district": "诏安县",
    "all_name": "华莱士·全鸡汉堡(四都店)|古茗(诏安四都店)|好想来品牌零食(漳州诏安县四都镇店)|糖巢零食四都店|蜜雪冰城",
    "location": [
      117.27715468615,
      23.7826268145219
    ],
    "near_shop": "MW0090(69.0)"
  },
  {
    "name": "古茗(河市中学店)",
    "type": "附近共聚集了 4 个品牌",
    "city": "泉州市",
    "district": "洛江区",
    "all_name": "华莱士·全鸡汉堡(河市店)|古茗(河市中学店)|糖巢零食(河市店)|蜜雪冰城",
    "location": [
      118.627475169994,
      25.0467335136146
    ],
    "near_shop": "无门店"
  },
  {
    "name": "古茗(仰恩大学店)",
    "type": "附近共聚集了 3 个品牌",
    "city": "泉州市",
    "district": "洛江区",
    "all_name": "古茗(仰恩大学店)|茶百道(仰恩大学店)|蜜雪冰城(仰恩大学二店)",
    "location": [
      118.602687029184,
      25.105938767707
    ],
    "near_shop": "TE154(2003.0)|TA0723(1670.0)"
  },
  {
    "name": "蜜雪冰城",
    "type": "附近共聚集了 4 个品牌",
    "city": "龙岩市",
    "district": "上杭县",
    "all_name": "古茗(龙岩上杭南阳店)|糖巢(龙岩上杭南阳店)|蜜雪冰城|赵一鸣零食(福建龙岩上杭南阳镇店)",
    "location": [
      116.505687170395,
      25.3156256914493
    ],
    "near_shop": "无门店"
  },
  {
    "name": "糖巢零食(泉州洛江罗溪店)",
    "type": "附近共聚集了 3 个品牌",
    "city": "泉州市",
    "district": "洛江区",
    "all_name": "古茗(洛江农民街店)|糖巢零食(泉州洛江罗溪店)|蜜雪冰城",
    "location": [
      118.609350610519,
      25.2119292758078
    ],
    "near_shop": "无门店"
  },
  {
    "name": "华莱士(山霞万锦)",
    "type": "附近共聚集了 4 个品牌",
    "city": "泉州市",
    "district": "惠安县",
    "all_name": "华莱士(山霞万锦)|古茗(惠安山霞东坑店)|糖巢量贩零食(泉州惠安东下坑店)|蜜雪冰城",
    "location": [
      118.877561939634,
      24.9044011002825
    ],
    "near_shop": "无门店"
  },
  {
    "name": "古茗(净峰中学店)",
    "type": "附近共聚集了 4 个品牌",
    "city": "泉州市",
    "district": "惠安县",
    "all_name": "华莱士·全鸡汉堡(62净峰店)|古茗(净峰中学店)|糖巢量贩零食(净峰二店)|赵一鸣零食(福建泉州惠安净峰镇湖莲路店)",
    "location": [
      118.97378516339,
      24.9773470137113
    ],
    "near_shop": "TE265(2635.0)"
  },
  {
    "name": "蜜雪冰城(小岞店)",
    "type": "附近共聚集了 4 个品牌",
    "city": "泉州市",
    "district": "惠安县",
    "all_name": "古茗(惠安小岞店)|糖巢量贩零食(小岞镇人民政府店)|蜜雪冰城(小岞店)|赵一鸣零食(福建泉州惠安小岞镇店)",
    "location": [
      118.99470740559,
      24.952221397826
    ],
    "near_shop": "TE265(871.0)"
  },
  {
    "name": "华莱士·全鸡汉堡(安溪西坪店)",
    "type": "附近共聚集了 4 个品牌",
    "city": "泉州市",
    "district": "安溪县",
    "all_name": "华莱士·全鸡汉堡(安溪西坪店)|古茗(安溪西坪镇店)|糖巢(安溪西坪店)|赵一鸣零食(泉州安溪西坪镇店)",
    "location": [
      117.946417788638,
      25.0219877010037
    ],
    "near_shop": "无门店"
  },
  {
    "name": "古茗(安溪虎邱学村路店)",
    "type": "附近共聚集了 3 个品牌",
    "city": "泉州市",
    "district": "安溪县",
    "all_name": "古茗(安溪蓬莱镇)|古茗(安溪虎邱学村路店)|糖巢(泉州安溪虎邱店)",
    "location": [
      117.999233338718,
      25.0031406838784
    ],
    "near_shop": "无门店"
  },
  {
    "name": "华莱士·全鸡汉堡(达埔店)",
    "type": "附近共聚集了 3 个品牌",
    "city": "泉州市",
    "district": "永春县",
    "all_name": "华莱士·全鸡汉堡(达埔店)|糖巢量贩零食(泉州永春达埔五中店)|华莱士·全鸡汉堡(达埔店)",
    "location": [
      118.15014355146,
      25.314454019287
    ],
    "near_shop": "无门店"
  },
  {
    "name": "古茗(永春达埔店)",
    "type": "附近共聚集了 3 个品牌",
    "city": "泉州市",
    "district": "永春县",
    "all_name": "古茗(永春达埔店)|糖巢零食|蜜雪冰城",
    "location": [
      118.148211359313,
      25.3169078328614
    ],
    "near_shop": "无门店"
  },
  {
    "name": "古茗(G356店)",
    "type": "附近共聚集了 3 个品牌",
    "city": "泉州市",
    "district": "永春县",
    "all_name": "古茗(G356店)|糖巢零食|蜜雪冰城",
    "location": [
      118.158115178676,
      25.3086426254835
    ],
    "near_shop": "无门店"
  },
  {
    "name": "华莱士·全鸡汉堡(仑苍2店)",
    "type": "附近共聚集了 3 个品牌",
    "city": "泉州市",
    "district": "南安市",
    "all_name": "糖巢零食(泉州南安仑苍二店)|华莱士·全鸡汉堡(仑苍2店)|麦当劳(广福路店)",
    "location": [
      118.290751092071,
      25.0069220482663
    ],
    "near_shop": "T286(952.0)"
  },
  {
    "name": "糖巢(漳州长泰陈巷店)",
    "type": "附近共聚集了 3 个品牌",
    "city": "漳州市",
    "district": "长泰区",
    "all_name": "古茗(漳州长泰陈巷店)|糖巢(漳州长泰陈巷店)|蜜雪冰城(纵十二路店)",
    "location": [
      117.797162696906,
      24.659058204553
    ],
    "near_shop": "无门店"
  },
  {
    "name": "蜜雪冰城(列屿店)",
    "type": "附近共聚集了 3 个品牌",
    "city": "漳州市",
    "district": "云霄县",
    "all_name": "古茗奶茶(云霄列屿店)|糖巢零食(漳州云霄列屿店)|蜜雪冰城(列屿店)",
    "location": [
      117.466464212,
      23.8179766509831
    ],
    "near_shop": "无门店"
  },
  {
    "name": "糖巢零食(霞美店)",
    "type": "附近共聚集了 4 个品牌",
    "city": "漳州市",
    "district": "漳浦县",
    "all_name": "古茗(霞美店)|糖巢零食(霞美店)|蜜雪冰城(霞美店)|赵一鸣零食(漳州漳浦霞美镇店)",
    "location": [
      117.686154453099,
      23.9953739258663
    ],
    "near_shop": "MA1594(247.0)"
  },
  {
    "name": "蜜雪冰城(六鳌店)",
    "type": "附近共聚集了 3 个品牌",
    "city": "漳州市",
    "district": "漳浦县",
    "all_name": "古茗(漳浦六鳌店)|糖巢零食(六鳌店)|蜜雪冰城(六鳌店)",
    "location": [
      117.752545557129,
      23.9355719328757
    ],
    "near_shop": "无门店"
  },
  {
    "name": "古茗(漳浦沙西店)",
    "type": "附近共聚集了 3 个品牌",
    "city": "漳州市",
    "district": "漳浦县",
    "all_name": "古茗(漳浦沙西店)|糖巢零食(沙西店)|蜜雪冰城(沙西中学店)",
    "location": [
      117.536026526176,
      23.9228801965914
    ],
    "near_shop": "无门店"
  },
  {
    "name": "糖巢零食(官陂店)",
    "type": "附近共聚集了 3 个品牌",
    "city": "漳州市",
    "district": "诏安县",
    "all_name": "好想来品牌零食(漳州诏安县官陂镇店)|糖巢零食(官陂店)|蜜雪冰城",
    "location": [
      117.071185642649,
      24.0167864439313
    ],
    "near_shop": "无门店"
  },
  {
    "name": "大大方方中国汉堡(大溪店)",
    "type": "附近共聚集了 3 个品牌",
    "city": "漳州市",
    "district": "漳州市",
    "all_name": "糖巢量贩零食(漳州平和大溪店)|蜜雪冰城(鸿西路店)|大大方方中国汉堡(大溪店)",
    "location": [
      117.117244552775,
      24.1099803891749
    ],
    "near_shop": "无门店"
  },
  {
    "name": "糖巢零食(古槐店)",
    "type": "附近共聚集了 3 个品牌",
    "city": "福州市",
    "district": "长乐区",
    "all_name": "华莱士·全鸡汉堡(直街店)|古茗(长乐古槐中村店)|糖巢零食(古槐店)",
    "location": [
      119.54613469087,
      25.8780691371504
    ],
    "near_shop": "无门店"
  },
  {
    "name": "华莱士·全鸡汉堡(垅下店)",
    "type": "附近共聚集了 3 个品牌",
    "city": "福州市",
    "district": "长乐区",
    "all_name": "华莱士·全鸡汉堡(垅下店)|古茗(松下店)|糖巢零食(垅下店)",
    "location": [
      119.60144937225,
      25.7841818093479
    ],
    "near_shop": "无门店"
  },
  {
    "name": "糖巢量贩零食(玉田店)",
    "type": "附近共聚集了 3 个品牌",
    "city": "福州市",
    "district": "长乐区",
    "all_name": "华莱士·全鸡汉堡(玉田店)|古茗(长乐玉田新街店)|糖巢量贩零食(玉田店)",
    "location": [
      119.459420118873,
      25.8726991141413
    ],
    "near_shop": "无门店"
  },
  {
    "name": "古茗(长乐江田三溪店)",
    "type": "附近共聚集了 3 个品牌",
    "city": "福州市",
    "district": "长乐区",
    "all_name": "华莱士·全鸡汉堡(三溪店)|古茗(长乐江田三溪店)|糖巢零食(三溪店)",
    "location": [
      119.549476106569,
      25.8388086709278
    ],
    "near_shop": "无门店"
  },
  {
    "name": "蜜雪冰城(官元线店)",
    "type": "附近共聚集了 3 个品牌",
    "city": "福州市",
    "district": "闽侯县",
    "all_name": "古茗(闽侯石佛头街店)|糖巢(鸿尾店)|蜜雪冰城(官元线店)",
    "location": [
      119.001792771116,
      26.1665675709218
    ],
    "near_shop": "无门店"
  },
  {
    "name": "华莱士·全鸡汉堡(丹阳店)",
    "type": "附近共聚集了 3 个品牌",
    "city": "福州市",
    "district": "连江县",
    "all_name": "华莱士·全鸡汉堡(丹阳店)|古茗(连江丹阳镇店)|糖巢量贩零食(福州连江丹阳店)",
    "location": [
      119.487176597221,
      26.3457254953972
    ],
    "near_shop": "无门店"
  },
  {
    "name": "古茗(连江苔菉后港店)",
    "type": "附近共聚集了 3 个品牌",
    "city": "福州市",
    "district": "连江县",
    "all_name": "古茗(连江苔菉后港店)|糖巢零食(苔菉店)|蜜雪冰城",
    "location": [
      119.939555461166,
      26.3565638375439
    ],
    "near_shop": "无门店"
  },
  {
    "name": "华莱士·全鸡汉堡(白樟店)",
    "type": "附近共聚集了 3 个品牌",
    "city": "福州市",
    "district": "闽清县",
    "all_name": "华莱士·全鸡汉堡(白樟店)|古茗(白樟街店)|糖巢零食",
    "location": [
      118.806201576484,
      26.1774368121608
    ],
    "near_shop": "无门店"
  },
  {
    "name": "古茗(永泰葛岭店)",
    "type": "附近共聚集了 4 个品牌",
    "city": "福州市",
    "district": "永泰县",
    "all_name": "华莱士·全鸡汉堡(G355店)|古茗(永泰葛岭店)|糖巢量贩零食(江山大名城店)|糖巢量贩零食(江山大名城悦山小区店)",
    "location": [
      119.077356203861,
      25.8790359694657
    ],
    "near_shop": "无门店"
  },
  {
    "name": "古茗(嵩口古镇店)",
    "type": "附近共聚集了 3 个品牌",
    "city": "福州市",
    "district": "永泰县",
    "all_name": "古茗(嵩口古镇店)|糖巢量贩零食(福州永泰嵩口店)|蜜雪冰城(嵩口古镇店)",
    "location": [
      118.591983455887,
      25.8006826559846
    ],
    "near_shop": "无门店"
  },
  {
    "name": "华莱士·全鸡汉堡(镜洋街店)",
    "type": "附近共聚集了 3 个品牌",
    "city": "福州市",
    "district": "福清市",
    "all_name": "华莱士·全鸡汉堡(镜洋街店)|古茗(福清镜洋镇店)|糖巢零食",
    "location": [
      119.295343205591,
      25.7718153364728
    ],
    "near_shop": "无门店"
  },
  {
    "name": "古茗(福清新港花园店)",
    "type": "附近共聚集了 3 个品牌",
    "city": "福州市",
    "district": "福清市",
    "all_name": "华莱士·全鸡汉堡(福清新厝店)|古茗(福清新港花园店)|糖巢量贩零食(盘昇新港花园店)",
    "location": [
      119.256293794621,
      25.5044413768621
    ],
    "near_shop": "无门店"
  },
  {
    "name": "古茗(江阴南曹村店)",
    "type": "附近共聚集了 3 个品牌",
    "city": "福州市",
    "district": "福清市",
    "all_name": "华莱士·全鸡汉堡(南曹店)|古茗(江阴南曹村店)|糖巢量贩零食(海威大厦店)",
    "location": [
      119.300838594,
      25.4589577887666
    ],
    "near_shop": "T25(1953.0)"
  },
  {
    "name": "古茗(城厢紫山西路店)",
    "type": "附近共聚集了 4 个品牌",
    "city": "莆田市",
    "district": "城厢区",
    "all_name": "华莱士·全鸡汉堡(华亭二店)|古茗(城厢紫山西路店)|糖巢(莆田城厢华亭店)|华莱士·全鸡汉堡(华亭二店)",
    "location": [
      118.8918323435,
      25.3813688552322
    ],
    "near_shop": "TA0904(122.0)"
  },
  {
    "name": "糖巢量贩零食(莆田城厢灵川店)",
    "type": "附近共聚集了 3 个品牌",
    "city": "莆田市",
    "district": "城厢区",
    "all_name": "华莱士·全鸡汉堡(灵川二店)|古茗(城厢灵川店)|糖巢量贩零食(莆田城厢灵川店)",
    "location": [
      118.970647466061,
      25.2906777639974
    ],
    "near_shop": "无门店"
  },
  {
    "name": "糖巢(莆田山亭店)",
    "type": "附近共聚集了 3 个品牌",
    "city": "莆田市",
    "district": "秀屿区",
    "all_name": "华莱士·全鸡汉堡(山亭店)|古茗(莆田山亭镇店)|糖巢(莆田山亭店)",
    "location": [
      119.12274382912,
      25.1555095545989
    ],
    "near_shop": "无门店"
  },
  {
    "name": "糖巢量贩零食(园庄店)",
    "type": "附近共聚集了 3 个品牌",
    "city": "莆田市",
    "district": "仙游县",
    "all_name": "华莱士·全鸡汉堡(园庄店)|糖巢量贩零食(园庄店)|蜜雪冰城(园庄店)",
    "location": [
      118.75427736712,
      25.2065433785028
    ],
    "near_shop": "无门店"
  },
  {
    "name": "华莱士·全鸡汉堡(庙前店)",
    "type": "附近共聚集了 4 个品牌",
    "city": "龙岩市",
    "district": "连城县",
    "all_name": "华莱士·全鸡汉堡(庙前店)|古茗(连城庙前店)|糖巢量贩零食(龙岩连城庙前店)|赵一鸣零食(龙岩连城庙前镇店)",
    "location": [
      116.685604326255,
      25.3290671519731
    ],
    "near_shop": "无门店"
  }
]